[
  {
    "user": "6591a2b3c4d5e6f7a8b9c001",
    "label": "home",
    "addressLine1": "Flat 402, Shanti Niketan Apartments",
    "addressLine2": "Sector 15, Vashi",
    "landmark": "Near Blue Diamond Hotel",
    "city": "Navi Mumbai",
    "state": "Maharashtra",
    "pincode": "400703",
    "country": "India",
    "location": { "type": "Point", "coordinates": [73.0012, 19.0330] },
    "geoSource": "google_maps",
    "contactName": "Aarav Sharma",
    "contactPhone": "9876543210",
    "deliveryInstructions": "Leave at the security gate.",
    "priority": 1,
    "isDefault": true
  },
  {
    "user": "6591a2b3c4d5e6f7a8b9c002",
    "label": "work",
    "addressLine1": "12th Floor, Cyber Tower",
    "addressLine2": "Hitech City",
    "landmark": "Opposite Shilparamam",
    "city": "Hyderabad",
    "state": "Telangana",
    "pincode": "500081",
    "country": "India",
    "location": { "type": "Point", "coordinates": [78.3814, 17.4483] },
    "geoSource": "mapbox",
    "contactName": "Priya Reddy",
    "contactPhone": "8123456789",
    "deliveryInstructions": "Call upon arrival, do not leave at reception.",
    "priority": 0,
    "isDefault": false
  },
  {
    "user": "6591a2b3c4d5e6f7a8b9c003",
    "label": "other",
    "addressLine1": "No. 45, 2nd Main Road",
    "addressLine2": "Indiranagar 1st Stage",
    "landmark": "Behind Toit Brewery",
    "city": "Bengaluru",
    "state": "Karnataka",
    "pincode": "560038",
    "country": "India",
    "location": { "type": "Point", "coordinates": [77.6412, 12.9784] },
    "geoSource": "manual",
    "contactName": "Rohan Das",
    "contactPhone": "7019283746",
    "deliveryInstructions": "Ring the bell loudly.",
    "priority": 2,
    "isDefault": false
  },
  {
    "user": "6591a2b3c4d5e6f7a8b9c004",
    "label": "home",
    "addressLine1": "House No. 124, Gali No. 4",
    "addressLine2": "Lajpat Nagar IV",
    "landmark": "Near Moolchand Metro Station",
    "city": "New Delhi",
    "state": "Delhi",
    "pincode": "110024",
    "country": "India",
    "location": { "type": "Point", "coordinates": [77.2435, 28.5677] },
    "geoSource": "google_maps",
    "contactName": "Ishita Verma",
    "contactPhone": "9988776655",
    "deliveryInstructions": "Please avoid calling between 2 PM to 4 PM.",
    "priority": 1,
    "isDefault": true
  },
  {
    "user": "6591a2b3c4d5e6f7a8b9c005",
    "label": "home",
    "addressLine1": "Villa 19, Green Meadows",
    "addressLine2": "ECR Road, Akkarai",
    "landmark": "Next to Mayajaal",
    "city": "Chennai",
    "state": "Tamil Nadu",
    "pincode": "600119",
    "country": "India",
    "location": { "type": "Point", "coordinates": [80.2405, 12.8906] },
    "geoSource": "mapbox",
    "contactName": "Siddharth Mani",
    "contactPhone": "9444012345",
    "isDefault": true
  },
  {
    "user": "6591a2b3c4d5e6f7a8b9c006",
    "label": "work",
    "addressLine1": "Infinity Benchmark, Plot G1",
    "addressLine2": "Salt Lake Sector V",
    "landmark": "Near RDB Cinemas",
    "city": "Kolkata",
    "state": "West Bengal",
    "pincode": "700091",
    "country": "India",
    "location": { "type": "Point", "coordinates": [88.4339, 22.5726] },
    "geoSource": "google_maps",
    "contactName": "Debayan Sen",
    "contactPhone": "9830012345",
    "deliveryInstructions": "Hand over to the office receptionist.",
    "isDefault": false
  },
  {
    "user": "6591a2b3c4d5e6f7a8b9c007",
    "label": "home",
    "addressLine1": "B-405, Galaxy Heights",
    "addressLine2": "Prahlad Nagar",
    "landmark": "Above Starbucks",
    "city": "Ahmedabad",
    "state": "Gujarat",
    "pincode": "380015",
    "country": "India",
    "location": { "type": "Point", "coordinates": [72.5074, 23.0120] },
    "geoSource": "manual",
    "contactName": "Meera Patel",
    "contactPhone": "9123456780",
    "isDefault": true
  },
  {
    "user": "6591a2b3c4d5e6f7a8b9c008",
    "label": "other",
    "addressLine1": "House 88, Civil Lines",
    "addressLine2": "Police Lines Area",
    "landmark": "Opposite Circuit House",
    "city": "Jaipur",
    "state": "Rajasthan",
    "pincode": "302006",
    "country": "India",
    "location": { "type": "Point", "coordinates": [75.7885, 26.9157] },
    "geoSource": "google_maps",
    "contactName": "Vikram Singh",
    "contactPhone": "9001234567",
    "isDefault": false
  },
  {
    "user": "6591a2b3c4d5e6f7a8b9c009",
    "label": "home",
    "addressLine1": "Row House 3, Clover Park",
    "addressLine2": "Viman Nagar",
    "landmark": "Near Phoenix Marketcity",
    "city": "Pune",
    "state": "Maharashtra",
    "pincode": "411014",
    "country": "India",
    "location": { "type": "Point", "coordinates": [73.9144, 18.5679] },
    "geoSource": "mapbox",
    "contactName": "Ananya Kulkarni",
    "contactPhone": "9765432109",
    "isDefault": true
  },
  {
    "user": "6591a2b3c4d5e6f7a8b9c010",
    "label": "work",
    "addressLine1": "Tidel Park, Module 4",
    "addressLine2": "Tharamani",
    "landmark": "Near MRTS Station",
    "city": "Chennai",
    "state": "Tamil Nadu",
    "pincode": "600113",
    "country": "India",
    "location": { "type": "Point", "coordinates": [80.2484, 12.9894] },
    "geoSource": "google_maps",
    "contactName": "Karthik Raja",
    "contactPhone": "9840012345",
    "deliveryInstructions": "Deliver before 6 PM.",
    "isDefault": false
  },
  {
    "user": "6591a2b3c4d5e6f7a8b9c011",
    "label": "home",
    "addressLine1": "Flat 102, Residency Towers",
    "addressLine2": "Gomti Nagar",
    "landmark": "Near Janeshwar Mishra Park",
    "city": "Lucknow",
    "state": "Uttar Pradesh",
    "pincode": "226010",
    "country": "India",
    "location": { "type": "Point", "coordinates": [80.9992, 26.8496] },
    "geoSource": "manual",
    "contactName": "Suresh Mishra",
    "contactPhone": "8887776665",
    "isDefault": true
  },
  {
    "user": "6591a2b3c4d5e6f7a8b9c012",
    "label": "home",
    "addressLine1": "34, Mall Road",
    "addressLine2": "Model Town",
    "landmark": "Near Guru Nanak Dev University",
    "city": "Amritsar",
    "state": "Punjab",
    "pincode": "143001",
    "country": "India",
    "location": { "type": "Point", "coordinates": [74.8723, 31.6340] },
    "geoSource": "google_maps",
    "contactName": "Harpreet Kaur",
    "contactPhone": "9814012345",
    "isDefault": true
  },
  {
    "user": "6591a2b3c4d5e6f7a8b9c013",
    "label": "other",
    "addressLine1": "Bunglow 45, Marine Drive",
    "addressLine2": "Opposite Kochi Chowpatty",
    "landmark": "Near Rainbow Bridge",
    "city": "Kochi",
    "state": "Kerala",
    "pincode": "682031",
    "country": "India",
    "location": { "type": "Point", "coordinates": [76.2844, 9.9816] },
    "geoSource": "mapbox",
    "contactName": "Jacob Thomas",
    "contactPhone": "9895012345",
    "isDefault": false
  },
  {
    "user": "6591a2b3c4d5e6f7a8b9c014",
    "label": "home",
    "addressLine1": "Flat 2C, Ashoka Enclave",
    "addressLine2": "Exhibition Road",
    "landmark": "Behind Maurya Hotel",
    "city": "Patna",
    "state": "Bihar",
    "pincode": "800001",
    "country": "India",
    "location": { "type": "Point", "coordinates": [85.1376, 25.6127] },
    "geoSource": "manual",
    "contactName": "Amitabh Sinha",
    "contactPhone": "9334012345",
    "isDefault": true
  },
  {
    "user": "6591a2b3c4d5e6f7a8b9c015",
    "label": "work",
    "addressLine1": "DLF Cyber City, Tower B",
    "addressLine2": "Phase 2",
    "landmark": "Near Cyber Hub",
    "city": "Gurugram",
    "state": "Haryana",
    "pincode": "122002",
    "country": "India",
    "location": { "type": "Point", "coordinates": [77.0878, 28.4950] },
    "geoSource": "google_maps",
    "contactName": "Sandeep Kohli",
    "contactPhone": "9560012345",
    "deliveryInstructions": "Drop at Tower B Reception.",
    "isDefault": false
  },
  {
    "user": "6591a2b3c4d5e6f7a8b9c016",
    "label": "home",
    "addressLine1": "House No 512, Sector 8",
    "addressLine2": "Panchkula",
    "landmark": "Near Sector 8 Market",
    "city": "Chandigarh",
    "state": "Chandigarh",
    "pincode": "160008",
    "country": "India",
    "location": { "type": "Point", "coordinates": [76.7794, 30.7333] },
    "geoSource": "mapbox",
    "contactName": "Gautam Gambhir",
    "contactPhone": "9815012345",
    "isDefault": true
  },
  {
    "user": "6591a2b3c4d5e6f7a8b9c017",
    "label": "home",
    "addressLine1": "A-12, Royal Palm Residency",
    "addressLine2": "Bani Park",
    "landmark": "Near Collectorate",
    "city": "Jaipur",
    "state": "Rajasthan",
    "pincode": "302016",
    "country": "India",
    "location": { "type": "Point", "coordinates": [75.7972, 26.9271] },
    "geoSource": "manual",
    "contactName": "Kavita Devi",
    "contactPhone": "8005554433",
    "isDefault": true
  },
  {
    "user": "6591a2b3c4d5e6f7a8b9c018",
    "label": "work",
    "addressLine1": "Infosys Campus, Plot 1",
    "addressLine2": "Electronic City Phase 1",
    "landmark": "Near Siemens",
    "city": "Bengaluru",
    "state": "Karnataka",
    "pincode": "560100",
    "country": "India",
    "location": { "type": "Point", "coordinates": [77.6729, 12.8501] },
    "geoSource": "google_maps",
    "contactName": "Rajesh N",
    "contactPhone": "9900012345",
    "isDefault": false
  },
  {
    "user": "6591a2b3c4d5e6f7a8b9c019",
    "label": "home",
    "addressLine1": "Flat 908, Sagar Darshan",
    "addressLine2": "Worli Sea Face",
    "landmark": "Near Blue Sea Banquet",
    "city": "Mumbai",
    "state": "Maharashtra",
    "pincode": "400030",
    "country": "India",
    "location": { "type": "Point", "coordinates": [72.8153, 19.0022] },
    "geoSource": "mapbox",
    "contactName": "Zoya Akhtar",
    "contactPhone": "9820012345",
    "isDefault": true
  },
  {
    "user": "6591a2b3c4d5e6f7a8b9c020",
    "label": "other",
    "addressLine1": "S-21, 3rd Floor, Central Plaza",
    "addressLine2": "M.G Road",
    "landmark": "Above Bata Showroom",
    "city": "Indore",
    "state": "Madhya Pradesh",
    "pincode": "452001",
    "country": "India",
    "location": { "type": "Point", "coordinates": [75.8577, 22.7196] },
    "geoSource": "manual",
    "contactName": "Rahul Jain",
    "contactPhone": "9425012345",
    "priority": 1,
    "isDefault": false
  }
]